identifier,name,alt_name,lat,long,admin_name,admin_code,population,flag,area
700000287,Tsaghkahovit,Tzaghkahovit|Gadzhi-Khalil|Tsakhkaovit,40.6343,44.2224,Aragatsotn,AM-AG,1486,PM,32.45
700000288,Anushavan,Parni|Pokr Parni,40.6501,43.9805,Shirak,AM-SH,1467,PM,17.97
700000289,Tavush,,40.92,45.4022,Tavush,AM-TV,1466,PM,#VALUE!
700000290,Lerrnavan,Kachagan|Lernavan,40.7882,44.1602,Lori,AM-LO,1453,PM,23.74
700000291,Lusakunk’,,40.1751,45.6917,Geghark'unik',AM-GR,1452,PM,#VALUE!
700000292,Kotayk’,Yelgovan,40.2779,44.6639,Kotayk',AM-KT,1446,PM,11.98
700000293,Artimet,Atarbekyan|Alibeklu,40.1501,44.2667,Armavir,AM-AV,1438,PM,7.04
700000294,Basen,Musayelyan|Mets Kyapanak,40.7577,43.9927,Shirak,AM-SH,1436,PM,17.58
700000295,Lenughi,,40.1251,43.9639,Armavir,AM-AV,1436,PM,7.03
700000296,Geghahovit,,40.1115,45.2873,Geghark'unik',AM-GR,1416,PM,#VALUE!
700000297,Nor Gyugh,Nor Gyukh|Tazagyukh,40.2667,44.6583,Kotayk',AM-KT,1401,PM,11.60
700000298,Nor Yerznka,,40.3001,44.3889,Aragatsotn,AM-AG,1398,PM,30.53
700000299,Zarrit’ap’,Pashaghu|Zaritap|Azizbekov|Pashalu,39.6389,45.5111,Vayots' Dzor,AM-VD,1392,PM,57.13
700000300,Franganots,,40.2464,44.2725,Armavir,AM-AV,1388,PM,#VALUE!
700000301,K’arahunj,,39.4738,46.3596,Syunik',AM-SU,1377,PM,#VALUE!
700000302,Arevashat,Varmaziar|Arevashet,40.1445,44.3751,Armavir,AM-AV,1343,PM,6.58
700000303,Spandaryan,Gyullija|Kulidzhan,40.661,44.0155,Shirak,AM-SH,1343,PM,38.06
700000304,Tsaghkalanj,,40.2001,44.2305,Armavir,AM-AV,1332,PM,#VALUE!
700000305,Zorak,,41.0237,44.1819,Lori,AM-LO,1331,PM,21.75
700000306,Kat’naghbyur,,40.3772,43.9383,Ararat,AM-AG,1329,PM,#VALUE!
700000307,Abovyan,,40.0485,44.5474,Ararat,AM-AR,1321,PM,13.10
700000308,Arazap’,Evdzhilar|Arazap,40.0417,44.1473,Armavir,AM-AV,1315,PM,6.44
700000309,Tsaghkadzor,Darachichag|Tsakhkadzor,40.5333,44.7206,Kotayk',AM-KT,1314,FULL,4.35
700000310,Teghut,,40.7777,44.935,Tavush,AM-TV,1312,PM,#VALUE!
700000311,Rrind,Rind,39.7611,45.1779,Vayots' Dzor,AM-VD,1310,PM,59.07
700000312,Sarahart’,Gyullidzha|Saraart,40.8704,44.2141,Lori,AM-LO,1307,PM,21.35
700000313,Getap’nya,,40.1405,44.4325,Ararat,AM-AR,1305,PM,#VALUE!
700000314,Aknashen,Khatunarkh|Verkhniy Khatunarkh|Verin Khatunarkh,40.0976,44.2853,Armavir,AM-AV,1303,PM,6.39
700000315,Margara,Markara,40.0333,44.1805,Armavir,AM-AV,1303,PM,10.75
700000316,Haykavan,Aykavan|Tapadibi,40.0889,44.0389,Armavir,AM-AV,1297,PM,5.63
700000317,Haykavan,Aykavan|Badzhogli,40.8031,43.7517,Shirak,AM-SH,1297,PM,5.63
700000318,Kanach’ut,,40.0095,44.5453,Ararat,AM-AR,1294,PM,#VALUE!
700000319,Aygepat,Dargalu Verkhniy|Masumlu|Verkhniy Dargalu,39.9585,44.5998,Ararat,AM-AR,1291,PM,11.04
700000320,Yeraskhahun,Yeraskhaun|Kuru-Araz,40.0723,44.2195,Armavir,AM-AV,1289,PM,6.31
700000321,Geghanist,Geghadir|Gekhadir|Gekhanist|Golgat,40.6847,44.0233,Shirak,AM-SH,1287,PM,#VALUE!
700000322,Ptghunk’,Ptkhunk,40.1639,44.3639,Armavir,AM-AV,1287,PM,6.31
700000323,Kamo,Gadzhi Nazar,40.8257,43.9507,Shirak,AM-SH,1283,PM,15.72
700000324,Zarr,,40.2585,44.7333,Kotayk',AM-KT,1283,PM,10.63
700000325,Lerrnakert,Shirvan|Shirvandzhug|Lernakert,40.5625,43.9389,Shirak,AM-SH,1252,PM,15.32
700000326,Gagarin,,40.5403,44.8696,Geghark'unik',AM-GR,1251,PM,20.49
700000327,Akhurik,,40.7421,43.7767,Shirak,AM-SH,1247,PM,12.00
700000328,Vardablur,Verdablur,40.9711,44.5075,Lori,AM-LO,1243,PM,20.30
700000329,Voskevan,Koshkotan,41.1208,45.0638,Tavush,AM-TV,1234,PM,24.16
700000330,Yerazgavors,,40.7029,43.7765,Shirak,AM-SH,1231,PM,15.07
700000331,Artashar,,40.1111,44.1833,Armavir,AM-AV,1228,PM,#VALUE!
700000332,Ushi,,40.3473,44.3751,Aragatsotn,AM-AG,1222,PM,26.70
700000333,Sarataki,,40.7431,44.1083,Shirak,AM-SH,1221,PM,#VALUE!
700000334,Bardzrashen,Baburli|Bartsrashen,40.5929,43.7372,Shirak,AM-SH,1219,PM,14.93
700000335,Gmbet’,,40.7973,45.1335,Tavush,AM-TV,1214,PM,23.79
700000336,Fioletovo,Nikitino,40.7224,44.7177,Lori,AM-LO,1211,PM,19.78
700000337,Shak’i,,39.6195,46.0167,Syunik',AM-SU,1207,PM,60.67
700000338,Urut,,40.8001,44.3779,Lorri,AM-LO,1207,PM,#VALUE!
700000339,Aghavnadzor,Babakishi|Agavnadzor|Akhavnadzor,40.5819,44.6958,Kotayk',AM-KT,1199,PM,11.89
700000340,Kaputan,Gëykilisa,40.3251,44.7001,Kotayk',AM-KT,1199,PM,9.94
700000341,Tsaghkunk’,,40.1805,44.2723,Armavir,AM-AV,1193,PM,#VALUE!
700000342,Archis,,41.1635,44.8763,Tavush,AM-TV,1183,PM,23.19
700000343,Ptghni,Ptykhni|Ptkhni|Ptgni,40.2557,44.5861,Kotayk',AM-KT,1179,PM,9.77
700000344,Byuravan,Bambakavan|Verin Kuylasar|Verkhniy Kuylasar,40.016,44.5189,Ararat,AM-AR,1177,PM,10.05
700000345,Navur,,40.8669,45.3418,Tavush,AM-TV,1176,PM,23.04
700000346,Melik’gyugh,,40.6654,44.3536,Aragatsotn,AM-AG,1175,PM,#VALUE!
700000347,Narek,,40.0029,44.6805,Ararat,AM-AR,1169,PM,#VALUE!
700000348,Yeghegnavan,Shidlu,39.8389,44.6195,Ararat,AM-AR,1169,PM,9.99
700000349,Vahramaberd,,40.8554,46.7408,Shirak,AM-SH,1164,PM,#VALUE!
700000350,Gomk’,,41.0111,44.0501,Shirak,AM-SH,1162,PM,#VALUE!
700000351,Dimitrov,,40.0085,44.4917,Ararat,AM-AR,1160,PM,9.92
700000352,Arp’i,,39.7389,45.2667,Vayots' Dzor,AM-VD,1158,PM,#VALUE!
700000353,Tsaghkaber,Tsakhkashen|Avdibek|Tzaghkaber|Tsakhkaber,40.7985,44.1014,Lori,AM-LO,1155,PM,16.99
700000354,Norashen,,40.6572,44.0718,Aragatsotn,AM-AG,1150,PM,16.26
700000355,Agarakadzor,Ayar,39.7361,45.3555,Vayots' Dzor,AM-VD,1144,PM,51.60
700000356,Lerrnants’k’,Lernantsk|Spitak|Lerrnants’k’,40.7953,44.2743,Lori,AM-LO,1141,PM,18.66
700000357,Doghs,Dokhs,40.2223,44.2723,Armavir,AM-AV,1136,PM,5.56
700000358,Vahagni,Shagali|Vaagni,40.907,44.6087,Lori,AM-LO,1134,PM,18.53
700000359,Shahumyan,Shaumyan|Molla Dursun|Shahumian,40.2139,44.3001,Armavir,AM-AV,1129,PM,#VALUE!
700000360,Artavaz,,40.6171,44.569,Kotayk',AM-KT,1118,PM,#VALUE!
700000361,Zoravan,Kargavank|Pokravan,40.3555,44.5223,Kotayk',AM-KT,1118,PM,9.26
700000362,Vernashen,Bashkend,39.7924,45.3639,Vayots' Dzor,AM-VD,1114,PM,50.18
700000363,Dzit’hank’ov,Bazirkhana|Dzitkhankov|Dzitankov,40.5085,43.8209,Shirak,AM-SH,1113,PM,13.63
700000364,Saralanj,,40.6212,44.0204,Shirak,AM-SH,1111,PM,#VALUE!
700000365,Korrnidzor,,39.5476,46.5305,Syunik',AM-SU,1110,PM,24.18
700000366,Geghadzor,,40.6273,44.171,Aragatsotn,AM-AG,1109,PM,#VALUE!
700000367,Yeghegnut,Yegegnut|Kamyshkut|Yekhegnut|Yekheknut,40.903,44.6315,Lori,AM-LO,1106,PM,18.06
700000368,Vahan,Ordzhonikidze|Orconikidze,40.5755,45.3977,Geghark'unik',AM-GR,1104,PM,18.10
700000369,Haykashen,,39.4389,46.2445,Syunik',AM-SU,1092,PM,35.39
700000370,Sis,Uliya Sarvanlar|Sarvanlar,40.0583,44.3889,Ararat,AM-AR,1087,PM,9.29
700000371,Hovtashen,Ovtashen,40.0251,44.4501,Ararat,AM-AR,1086,PM,9.28
700000372,Ashnak,,40.3307,43.9167,Aragatsotn,AM-AG,1083,PM,23.67
700000373,Zangakatun,Chanakhchi|Sovetashen|Nizhniye Chanakhchi,39.8223,45.0417,Ararat,AM-AR,1082,PM,9.25
700000374,Darbnik,,40.1083,44.3779,Ararat,AM-AR,1080,PM,#VALUE!
700000375,Harrich,,40.6095,44.0031,Shirak,AM-SH,1078,PM,1.08
700000376,Khach’aghbyur,,40.1083,45.7279,Geghark'unik',AM-GR,1073,PM,#VALUE!
700000377,Saratak,Imrkhan,40.6709,43.8723,Shirak,AM-SH,1068,PM,13.08
700000378,Bazum,Bzovdal,40.8676,44.4398,Lori,AM-LO,1067,PM,17.43
700000379,Gharibjanyan,,40.7403,43.8041,Shirak,AM-SH,1064,PM,#VALUE!
700000380,Saramej,Chotur|Saramech,40.7749,44.2222,Lori,AM-LO,1064,PM,17.39
700000381,Baghramyan,Bagramyan,40.1945,44.3695,Armavir,AM-AV,1062,PM,11.01
700000382,Meghrashen,Kazanchi|Megrashen,40.6723,43.9583,Shirak,AM-SH,1061,PM,12.98
700000383,Privolnoye,,41.1463,44.4457,Lorri,AM-LO,1057,PM,5.51
700000384,Urrut,Urut,41.0678,44.3963,Lori,AM-LO,1056,PM,17.25
700000385,Lorut,,40.9372,44.7714,Lori,AM-LO,1055,PM,17.23
700000386,Sarigyugh,Srygekh|Srigekh|Sarigyukh|Sarıgüh,41.0353,45.1449,Tavush,AM-TV,1050,PM,20.58
700000387,Aygek,,40.1889,44.3861,Armavir,AM-AV,1049,PM,5.14
700000388,Dzorakap,,40.5681,43.8807,Shirak,AM-SH,1048,PM,#VALUE!
700000389,Gogaran,Gëran,40.8925,44.1991,Lori,AM-LO,1043,PM,17.03
700000390,Tsaghkunk’,Tsakhkunk|Tzaghkunk,40.5779,44.8779,Geghark'unik',AM-GR,1043,PM,17.10
700000391,Yelp’in,,39.8111,45.1111,Vayots' Dzor,AM-VD,1037,PM,#VALUE!
700000392,Metsamor,Kamarlu,40.1444,44.1167,Armavir,AM-AV,1034,PM,9.12
700000393,Sverdlov,,41.0965,44.3984,Lorri,AM-LO,1028,PM,#VALUE!
700000394,Aruch,,40.2875,44.078,Aragatsotn,AM-AG,1022,PM,#VALUE!
700000395,Norashen,,40.4802,43.6708,Shirak,AM-SH,1016,PM,#VALUE!
700000396,Arjut,,40.8612,44.3759,Lorri,AM-LO,1015,PM,26.95
700000397,Geghamasar,Gukarrich|Shishkaya|Şişqaya,40.3109,45.6792,Geghark'unik',AM-GR,1015,PM,16.64
700000398,Nizami,,40.0917,44.4057,Ararat,AM-AR,1015,PM,8.67
700000399,Khnatsakh,,39.6055,46.3917,Syunik',AM-SU,1006,PM,29.41
700000400,Lusaghbyur,,41.0293,44.2333,Lorri,AM-LO,1006,PM,#VALUE!
700000401,Tsiatsan,Grampa,40.1861,44.2695,Armavir,AM-AV,1005,PM,4.93
700000402,Yeghegis,Alagyaz|Yekhegis|Erdapin|Alayaz,39.8723,45.3501,Vayots' Dzor,AM-VD,1002,PM,45.13
700000403,Karrnut,,40.7836,43.9569,Shirak,AM-SH,1001,PM,#VALUE!
700000404,Deghdzut,,40.0262,44.5491,Ararat,AM-AR,998,PM,#VALUE!
700000405,Arevabuyr,,40.0361,44.4695,Ararat,AM-AR,997,PM,8.52
700000406,Irind,,40.3917,43.9779,Aragatsotn,AM-AG,994,PM,#VALUE!
700000407,Artabuynk’,,39.8667,45.3279,Vayots' Dzor,AM-VD,993,PM,#VALUE!
700000408,Dzorastan,Khlatag|Akhtakhana|Dzorastan,39.2706,46.3572,Syunik',AM-SU,991,PM,32.10
700000409,Nor Yedesia,,40.2223,44.1335,Aragatsotn,AM-AG,991,PM,#VALUE!
700000410,Jrahovit,Dzhraovit|Dzhabachalu,40.0473,44.4751,Ararat,AM-AR,989,PM,8.44
700000411,Lchap’,Lehap|Agzibir,40.4557,45.0751,Geghark'unik',AM-GR,989,PM,16.20
700000412,Mrganush,Zograblu,40.0286,44.5583,Ararat,AM-AR,989,PM,8.44
700000413,Akner,,39.5349,46.3073,Syunik',AM-SU,985,PM,1.89
700000414,Voskehat,,40.2779,44.2751,Aragatsotn,AM-AG,983,PM,#VALUE!
700000415,Madina,,40.0764,45.2551,Geghark'unik',AM-GR,982,PM,16.08
700000416,Fantan,Fontan,40.3945,44.6861,Kotayk',AM-KT,976,PM,8.09
700000417,Hovtamej,Ovtamech|Mugan,40.1833,44.2585,Armavir,AM-AV,975,PM,4.78
700000418,Drakhtik,,40.0695,44.0807,Armavir,AM-AV,973,PM,4.77
700000419,Noravan,,40.1723,44.0333,Armavir,AM-AV,970,PM,#VALUE!
700000420,Arevatsag,,40.9721,44.6091,Lorri,AM-LO,968,PM,#VALUE!
700000421,Mrgastan,,40.2001,44.2779,Armavir,AM-AV,968,PM,#VALUE!
700000422,Shaghat,Shagat,39.557,45.9073,Syunik',AM-SU,968,PM,31.39
700000423,Amasia,,40.0833,43.9667,Armavir,AM-AV,966,PM,#VALUE!
700000424,Voghjaberd,,40.1681,44.6482,Kotayk',AM-KT,965,PM,#VALUE!
700000425,Shirak,Kunakhkran|Konakhkran,40.8404,43.9158,Shirak,AM-SH,964,PM,11.81
700000426,Bazmaghbyur,,40.3361,44.3139,Aragatsotn,AM-AG,958,PM,#VALUE!
700000427,Gorayk’,Bazarchay,39.6763,45.7693,Syunik',AM-SU,958,PM,31.05
700000428,Aragyugh,Aragyukh|Karadzhoran,40.4029,44.5445,Kotayk',AM-KT,957,PM,7.93
700000429,Aygut,Gëlkend|Gölkənd,40.683,45.1763,Geghark'unik',AM-GR,955,PM,15.66
700000430,Debet,,40.9179,44.6493,Lorri,AM-LO,953,PM,#VALUE!
700000431,Gosh,,40.7305,45.0001,Tavush,AM-TV,952,PM,18.66
700000432,Kech’ut,,39.8361,45.1307,Vayots' Dzor,AM-VD,952,PM,#VALUE!
700000433,Khot,,39.4436,46.3372,Syunik',AM-SU,950,PM,17.97
700000434,T’t’ujur,,40.6464,45.3159,Geghark'unik',AM-GR,950,PM,#VALUE!
700000435,Rranch’par,Ranchpar,40.0279,44.3695,Ararat,AM-AR,947,PM,8.09
700000436,Hatsik,,40.8475,43.874167,Shirak,AM-SH,945,PM,#VALUE!
700000437,Lusagyugh,,40.0889,44.2695,Armavir,AM-AV,938,PM,#VALUE!
700000438,Byurakn,,40.8681,43.9098,Shirak,AM-SH,934,PM,#VALUE!
700000439,Gyullibulagh,,40.8686,43.7147,Shirak,AM-SH,934,PM,#VALUE!
700000440,Lanjik,,40.5041,43.8625,Shirak,AM-SH,932,PM,#VALUE!
700000441,Berdik,,39.9945,44.5723,Ararat,AM-AR,925,PM,#VALUE!
700000442,Avan,,40.3354,44.1674,Aragatsotn,AM-AG,923,PM,#VALUE!
700000443,Lermontovo,,40.7602,44.6316,Lorri,AM-LO,922,PM,#VALUE!
700000444,Hart’avan,,40.4779,44.4001,Aragatsotn,AM-AG,921,PM,#VALUE!
700000445,Vardanashen,,40.1529,44.1945,Armavir,AM-AV,921,PM,#VALUE!
700000446,Shaghap’,,39.8807,44.8917,Ararat,AM-AR,906,PM,#VALUE!
700000447,Ch’orat’an,,40.8619,45.4879,Tavush,AM-TV,905,PM,#VALUE!
700000448,Gusanagyugh,,40.6639,43.7931,Shirak,AM-SH,905,PM,#VALUE!
700000449,Zovk’,,40.2054,44.6933,Kotayk',AM-KT,904,PM,#VALUE!
700000450,Lejan,,41.0273,44.4451,Lorri,AM-LO,903,PM,#VALUE!
700000451,Baghanis,,41.1092,45.0566,Tavush,AM-TV,900,PM,1259.00
700000452,Zorakan,,41.2209,44.936,Tavush,AM-TV,898,PM,#VALUE!
700000453,Ch’inari,,40.8547,45.5778,Tavush,AM-TV,894,PM,#VALUE!
700000454,Tsaghkavan,,40.9413,45.3308,Tavush,AM-TV,894,PM,#VALUE!
700000455,Harzhis,,39.4344,46.222,Syunik',AM-SU,886,PM,33.86
700000456,Hushakert,,40.0833,43.9305,Armavir,AM-AV,884,PM,#VALUE!
700000457,Lerrnadzor,,39.1583,46.2001,Syunik',AM-SU,873,PM,#VALUE!
700000458,Yeraskh,,39.7394,44.8281,Ararat,AM-AR,872,PM,#VALUE!
700000459,Khach’ik,,39.622,45.2084,Vayots' Dzor,AM-VD,870,PM,62.11
700000460,Khech’ik,,39.6216,45.2055,Shirak,AM-SH,870,PM,#VALUE!
700000461,Vardenut,,40.4695,44.3667,Aragatsotn,AM-AG,860,PM,#VALUE!
700000462,Shenik,,40.2111,43.7695,Armavir,AM-AV,859,PM,#VALUE!
700000463,Jrap’i,,40.5553,43.6808,Shirak,AM-SH,852,PM,#VALUE!
700000464,Vanand,,40.1083,43.8167,Armavir,AM-AV,852,PM,31.75
700000465,Mikhayelovka,,41.164,44.2783,Lorri,AM-LO,847,PM,#VALUE!
700000466,Mughni,,40.3167,44.3723,Aragatsotn,AM-AG,846,PM,#VALUE!
700000467,Ptghavan,,41.2297,44.8535,Tavush,AM-TV,838,PM,#VALUE!
700000468,Gndevaz,,39.7611,45.6223,Vayots' Dzor,AM-VD,836,PM,#VALUE!
700000469,Isahakyan,,40.6156,43.7264,Shirak,AM-SH,831,PM,#VALUE!
700000470,Jajurr,,40.8515,43.9534,Shirak,AM-SH,831,PM,#VALUE!
700000471,Sot’k’,,40.2001,45.8695,Geghark'unik',AM-GR,831,PM,#VALUE!
700000472,Getap’,Kasmali|Getapi,40.6543,43.9945,Shirak,AM-SH,829,PM,#VALUE!
700000473,Tat’ev,Taten|Tatev,39.3861,46.2445,Syunik',AM-SU,828,PM,26.82
700000474,Arak’savan,,40.0001,44.4667,Ararat,AM-AR,826,PM,2.70
700000475,Yeghipatrush,,40.5342,44.4731,Aragatsotn,AM-AG,826,PM,#VALUE!
700000476,Voskepar,,41.0645,45.0563,Tavush,AM-TV,825,PM,11.57
700000477,Nahapetavan,,40.6081,44.0128,Shirak,AM-SH,824,PM,#VALUE!
700000478,Hobardzi,,40.9603,44.4947,Lorri,AM-LO,821,PM,#VALUE!
700000479,Karenis,,40.3917,44.6055,Kotayk',AM-KT,820,PM,#VALUE!
700000480,Aragatsotn,,40.2603,44.1815,Aragatsotn,AM-AG,811,PM,#VALUE!
700000481,Lusagyugh,,40.6102,44.3863,Aragatsotn,AM-AG,810,PM,#VALUE!
700000482,Getargel,,40.2445,44.5973,Kotayk',AM-KT,802,PM,#VALUE!
700000483,Bagravan,,40.4793,43.6709,Shirak,AM-SH,799,PM,#VALUE!
700000484,Haghpat,,41.0956,44.7113,Lorri,AM-LO,794,PM,#VALUE!
700000485,Haght’anak,,41.2172,44.9138,Tavush,AM-TV,771,PM,#VALUE!
700000486,Vazashen,,40.9962,45.2802,Tavush,AM-TV,771,PM,#VALUE!
700000487,Jrashen,Dzhrashen,40.0861,44.0195,Armavir,AM-AV,766,PM,9.05
700000488,Aygabats’,,40.7001,43.9069,Shirak,AM-SH,763,PM,#VALUE!
700000489,Artanish,,40.4973,45.3639,Geghark'unik',AM-GR,762,PM,#VALUE!
700000490,T’eghut,,41.1151,44.8463,Lorri,AM-LO,752,PM,#VALUE!
700000491,Beniamin,,40.6903,43.8529,Shirak,AM-SH,751,PM,#VALUE!
700000492,K’araglukh,,39.8973,45.2695,Vayots' Dzor,AM-VD,749,PM,#VALUE!
700000493,Shirakavan,,40.6291,43.7305,Shirak,AM-SH,749,PM,18.70
700000494,Hayrenyats’,,40.6307,43.8727,Shirak,AM-SH,736,PM,#VALUE!
700000495,Dasht,,40.2279,44.3001,Armavir,AM-AV,730,PM,#VALUE!
700000496,Yernjatap’,,40.4557,44.4667,Aragatsotn,AM-AG,730,PM,#VALUE!
700000497,Kaps,,40.8713,43.755,Shirak,AM-SH,727,PM,#VALUE!
700000498,Hart’ashen,,39.4844,46.3815,Syunik',AM-SU,723,PM,30.99
700000499,Lusakert,,40.6727,43.8575,Shirak,AM-SH,719,PM,#VALUE!
700000500,Getamej,,40.2751,44.5889,Kotayk',AM-KT,718,PM,#VALUE!
700000501,Herher,,39.7751,45.5417,Vayots' Dzor,AM-VD,712,PM,#VALUE!
700000502,Vardenis,Gyullidzha,40.5675,44.4059,Aragatsotn,AM-AG,709,PM,238.17
700000503,Ch’iva,,39.7667,45.1361,Vayots' Dzor,AM-VD,704,PM,#VALUE!
700000504,Yervandashat,,40.1173,43.6717,Armavir,AM-AV,701,PM,#VALUE!
700000505,Bayandur,,40.6931,43.7709,Shirak,AM-SH,696,PM,#VALUE!
700000506,Artashavan,,40.3889,44.3835,Aragatsotn,AM-AG,694,PM,#VALUE!
700000507,Hovuni,,40.8708,43.7979,Shirak,AM-SH,693,PM,#VALUE!
700000508,Zarinja,,40.4779,43.7807,Aragatsotn,AM-AG,690,PM,#VALUE!
700000509,Hayravank’,,40.4389,45.1001,Geghark'unik',AM-GR,686,PM,#VALUE!
700000510,Geghadir,,40.1547,44.6514,Kotayk',AM-KT,682,PM,#VALUE!
700000511,K’arashamb,,40.4029,44.5751,Kotayk',AM-KT,682,PM,#VALUE!
700000512,Akunk’,,40.4251,43.9083,Aragatsotn,AM-AG,678,PM,#VALUE!
700000513,Lusadzor,,40.9369,45.1484,Tavush,AM-TV,677,PM,#VALUE!
700000514,Debetavan,,41.2794,44.8124,Tavush,AM-TV,675,PM,#VALUE!
700000515,Shamlugh,Shamlug,41.1678,44.7231,Lori,AM-LO,671,PM,10.96
700000516,Akner,,41.0817,44.6923,Lori,AM-LO,660,PM,16.09
700000517,Hnaberd,,40.0061,44.5743,Ararat,AM-AR,659,PM,2.17
700000518,Bagaran,,40.1474,43.6602,Armavir,AM-AV,657,PM,#VALUE!
700000519,Marts’,,40.9554,44.7006,Lorri,AM-LO,657,PM,#VALUE!
700000520,Geghadir,,40.6588,44.10722,Shirak,AM-SH,654,PM,#VALUE!
700000521,Vardak’ar,,40.6643,43.9189,Shirak,AM-SH,651,PM,#VALUE!
700000522,Varagavan,,40.9629,45.3528,Tavush,AM-TV,635,PM,#VALUE!
700000523,Vardablur,,40.6759,44.2445,Aragatsotn,AM-AG,635,PM,#VALUE!
700000524,Ginevet,,39.933,44.6241,Ararat,AM-AR,632,PM,#VALUE!
700000525,Artsvanik,,39.2632,46.4737,Syunik',AM-SU,630,PM,20.02
700000526,Dashtadem,,40.3417,43.8583,Aragatsotn,AM-AG,618,PM,#VALUE!
700000527,Shatvan,,40.1833,45.8251,Geghark'unik',AM-GR,617,PM,#VALUE!
700000528,Azatashen,,40.1361,44.4167,Ararat,AM-AR,611,PM,#VALUE!
700000529,Azatek,,39.6501,45.4389,Vayots' Dzor,AM-VD,608,PM,#VALUE!
700000530,Voghji,,40.8094,46.4633,Syunik',AM-SU,607,PM,#VALUE!
700000531,Lusashogh,,39.8529,44.9805,Ararat,AM-AR,606,PM,#VALUE!
700000532,Martiros,,39.5973,45.5139,Vayots' Dzor,AM-VD,606,PM,#VALUE!
700000533,Tsaghkashen,,40.5034,44.354,Aragatsotn,AM-AG,605,PM,#VALUE!
700000534,Vaghatin,,39.5047,46.1205,Syunik',AM-SU,598,PM,40.82
700000535,Sarakap,,40.5535,43.7319,Shirak,AM-SH,596,PM,#VALUE!
700000536,Ashotavan,,39.4792,46.0053,Syunik',AM-SU,594,PM,17.16
700000537,Nigavan,,40.6163,44.3012,Aragatsotn,AM-AG,593,PM,#VALUE!
700000538,Kat’naghbyur,,40.2561,44.6766,Vayots' Dzor,AM-KT,582,PM,#VALUE!
700000539,Amrakits’,,40.9942,44.4388,Lorri,AM-LO,577,PM,12.20
700000540,Nurrnus,,40.3576,44.6062,Kotayk',AM-KT,577,PM,#VALUE!
700000541,Ghazanch’i,,41.0733,43.8404,Shirak,AM-SH,576,PM,#VALUE!
700000542,Lehvaz,,38.9385,46.2156,Syunik',AM-SU,576,PM,16.87
700000543,Hovit,,40.7694,43.9954,Shirak,AM-SH,574,PM,#VALUE!
700000544,Arp’unk’,,40.2871,45.7351,Geghark'unik',AM-GR,573,PM,#VALUE!
700000545,Kyasaman,,40.2831,45.7322,Geghark'unik',AM-GR,573,PM,#VALUE!
700000546,Lusaghbyur,,40.6354,43.7447,Shirak,AM-SH,572,PM,#VALUE!
700000547,Shgharshik,,40.4057,43.9667,Aragatsotn,AM-AG,570,PM,#VALUE!
700000548,Hats’avan,,40.1371,44.6522,Kotayk',AM-KT,568,PM,#VALUE!
700000549,Tsilk’ar,,40.7201,44.2068,Aragatsotn,AM-AG,567,PM,#VALUE!
700000550,Ch’inch’in,,40.9084,45.3505,Tavush,AM-TV,563,PM,#VALUE!
700000551,Darbas,,39.4389,46.1275,Syunik',AM-SU,561,PM,28.09
700000552,Dashtakar,,39.9166,44.75,Ararat,AM-AR,560,PM,#VALUE!
700000553,Halidzor,,39.4123,46.2958,Syunik',AM-SU,556,PM,#VALUE!
700000554,K’arashen,,39.5406,46.4078,Syunik',AM-SU,555,PM,13.82
700000555,Lchavan,,40.1492,45.6109,Geghark'unik',AM-GR,553,PM,#VALUE!
700000556,Argina,,40.2723,43.7361,Armavir,AM-AV,552,PM,#VALUE!
700000557,Getk’,,40.7265,43.7848,Shirak,AM-SH,550,PM,#VALUE!
700000558,Berk’ashat,,40.0417,43.9111,Armavir,AM-AV,549,PM,#VALUE!
700000559,Ts’oghamarg,,40.9487,43.8575,Shirak,AM-SH,548,PM,#VALUE!
700000560,Kachachkut,,41.111,44.5869,Lorri,AM-LO,542,PM,#VALUE!
700000561,Akhlat’yan,,39.4389,46.0417,Syunik',AM-SU,540,PM,33.91
700000562,Yeghnik,,40.4083,43.9445,Aragatsotn,AM-AG,540,PM,#VALUE!
700000563,Dovegh,,41.1843,45.0282,Tavush,AM-TV,539,PM,#VALUE!
700000564,Lerrnapar,,40.7439,44.16,Aragatsotn,AM-AG,539,PM,#VALUE!
700000565,Anipemza,,40.4431,43.6029,Shirak,AM-SH,527,PM,67.00
700000566,Aniavan,,40.4639,43.6459,Aragatsotn,AM-AG,520,PM,#VALUE!
700000567,Ch’kalovka,,40.5085,44.9805,Geghark'unik',AM-GR,520,PM,#VALUE!
700000568,Jujevan,,41.129,45.0115,Tavush,AM-TV,518,PM,#VALUE!
700000569,Tufashen,,40.6043,43.9181,Shirak,AM-SH,517,PM,#VALUE!
700000570,Krasar,,41.0167,43.8251,Shirak,AM-SH,516,PM,#VALUE!
700000571,Orgov,,40.3473,44.2557,Aragatsotn,AM-AG,515,PM,#VALUE!
700000572,Aknaghbyur,,40.9639,45.1583,Tavush,AM-TV,513,PM,#VALUE!
700000573,Hoghmik,,40.9183,43.8071,Shirak,AM-SH,513,PM,#VALUE!
700000574,Shorzha,,40.5015,45.2737,Geghark'unik',AM-GR,513,PM,#VALUE!
700000575,Khndzorut,,39.8417,45.1167,Vayots' Dzor,AM-VD,504,PM,#VALUE!
700000576,Zovasar,,40.4744,43.95,Aragatsotn,AM-AG,501,PM,#VALUE!
700000577,Ghursali,,40.8268,44.3373,Lorri,AM-LO,500,PM,#VALUE!
700000578,Ap’nagyugh,,40.4389,44.3973,Aragatsotn,AM-AG,494,PM,#VALUE!
700000579,Apnagyugh,,40.4394,44.3961,Vayots' Dzor,AM-AG,494,PM,#VALUE!
700000580,Bavra,,41.1203,43.8103,Shirak,AM-SH,494,PM,#VALUE!
700000581,Torfavan,,40.1833,45.6333,Geghark'unik',AM-GR,494,PM,#VALUE!
700000582,Dprabak,,40.6879,45.1251,Geghark'unik',AM-GR,493,PM,#VALUE!
700000583,Aygepar,,40.9295,45.4663,Tavush,AM-TV,489,PM,#VALUE!
700000584,Noravan,,39.5153,46.1005,Syunik',AM-SU,489,PM,34.17
700000585,Ghazaravan,,40.3435,44.3338,Aragatsotn,AM-AG,481,PM,#VALUE!
700000586,Norashen,,40.5044,45.0227,Geghark'unik',AM-GR,479,PM,#VALUE!
700000587,Shenavan,,40.8691,44.2389,Lorri,AM-LO,479,PM,#VALUE!
700000588,Haykadzor,,40.5314,43.6593,Shirak,AM-SH,478,PM,#VALUE!
700000589,Sarrnakunk’,,39.6501,45.8835,Syunik',AM-SU,478,PM,41.72
700000590,Aznvadzor,,40.8796,44.4261,Lorri,AM-LO,477,PM,#VALUE!
700000591,Tsaghkashen,,39.9779,45.2501,Geghark'unik',AM-GR,473,PM,#VALUE!
700000592,Alagyaz,,40.6808,44.2868,Aragatsotn,AM-AG,472,PM,#VALUE!
700000593,Shatjrek’,,40.1639,45.7917,Geghark'unik',AM-GR,469,PM,#VALUE!
700000594,Berk’aber,,41.0557,45.1471,Tavush,AM-TV,468,PM,#VALUE!
700000595,K’aradzor,,40.8461,44.3212,Lorri,AM-LO,465,PM,#VALUE!
700000596,Ts’amak’asar,,40.4667,43.7611,Aragatsotn,AM-AG,456,PM,#VALUE!
700000597,Jraber,,40.3529,44.6473,Kotayk',AM-KT,455,PM,#VALUE!
700000598,Hatis,,40.3333,44.7333,Kotayk',AM-KT,454,PM,#VALUE!
700000599,Charchakis,,40.7043,44.3055,Aragatsotn,AM-AG,447,PM,#VALUE!
700000600,Sip’anik,,40.0833,44.3625,Ararat,AM-AR,441,PM,#VALUE!
700000601,Aghitu,,39.5175,46.0818,Syunik',AM-SU,440,PM,19.44
700000602,Armanis,,41.0109,44.3295,Lorri,AM-LO,440,PM,#VALUE!
700000603,Hovk’,,40.7875,45.0333,Tavush,AM-TV,439,PM,#VALUE!
700000604,Lchkadzor,,41.1774,44.9064,Tavush,AM-TV,437,PM,#VALUE!
700000605,Saratovka,,41.0757,44.3109,Lorri,AM-LO,432,PM,#VALUE!
700000606,Dzoragyugh,,40.9483,44.6156,Lorri,AM-LO,427,PM,#VALUE!
700000607,Tsghuk,,39.6561,45.8694,Syunik',AM-SU,426,PM,50.98
700000608,Zuygaghbyur,,41.0181,43.9029,Shirak,AM-SH,421,PM,#VALUE!
700000609,Shamb,,39.4664,46.1508,Syunik',AM-SU,420,PM,#VALUE!
700000610,Aghnjadzor,,39.9001,45.2501,Vayots' Dzor,AM-VD,416,PM,#VALUE!
700000611,Akhkend,,39.7744,45.6006,Vayots' Dzor,AM-VD,416,PM,#VALUE!
700000612,Pushkino,,40.9574,44.4225,Lorri,AM-LO,415,PM,#VALUE!
700000613,Antarramut,,40.9332,44.5624,Lorri,AM-LO,414,PM,5.49
700000614,P’ambak,,40.8309,44.5572,Lorri,AM-LO,410,PM,#VALUE!
700000615,Pambak,,40.8331,44.3403,Lorri,AM-LO,410,PM,#VALUE!
700000616,Mak’enis,,40.1223,45.6167,Geghark'unik',AM-GR,408,PM,#VALUE!
700000617,Koghes,,40.9872,44.5355,Lorri,AM-LO,404,PM,#VALUE!
700000618,Khoznavar,,39.6214,46.3513,Syunik',AM-SU,399,PM,16.22
700000619,Uyts,,39.5071,46.0512,Syunik',AM-SU,399,PM,33.43
700000620,Urasar,,41.0147,44.2906,Lorri,AM-LO,397,PM,#VALUE!
700000621,Goghovit,,40.9303,43.8315,Shirak,AM-SH,392,PM,#VALUE!
700000622,Shenat’agh,,39.3779,46.1361,Syunik',AM-SU,392,PM,43.84
700000623,Karaiman,,40.2811,45.7828,Geghark'unik',AM-GR,388,PM,#VALUE!
700000624,Aghin,,40.5856,43.6985,Shirak,AM-SH,385,PM,#VALUE!
700000625,Karkop,,41.2,44.8333,Lori,AM-LO,380,PM,#VALUE!
700000626,Kakhakn,,40.2833,45.7833,Geghark'unik',AM-GR,378,PM,#VALUE!
700000627,Artsni,,41.2096,44.3682,Lorri,AM-LO,374,PM,#VALUE!
700000628,Meghrashat,,40.8556,43.6926,Shirak,AM-SH,374,PM,#VALUE!
700000629,Spandaryan,Meliklar|Kalachik|Maliklar|Meliklu,39.6216,45.9047,Syunik’,AM-SU,374,PM,23.76
700000630,Getik,,40.6603,45.2697,Geghark'unik',AM-GR,373,PM,#VALUE!
700000631,T’avshut,,41.085,43.8049,Shirak,AM-SH,373,PM,#VALUE!
700000632,Yeghegi,,40.1083,44.1083,Armavir,AM-AV,372,PM,#VALUE!
700000633,Arayi,,40.4459,44.3791,Aragatsotn,AM-AG,371,PM,#VALUE!
700000634,Vahagnadzor,,40.8861,44.5945,Lorri,AM-LO,371,PM,#VALUE!
700000635,Vanevan,,40.1907,45.6813,Geghark'unik',AM-GR,370,PM,#VALUE!
700000636,Dzoraglukh,,40.5763,44.489,Aragatsotn,AM-AG,369,PM,#VALUE!
700000637,Lor,,39.4111,46.1307,Syunik',AM-SU,368,PM,17.97
700000638,Lusahovit,,40.9175,45.1873,Tavush,AM-TV,367,PM,#VALUE!
700000639,Bardzruni,,39.5195,45.4833,Vayots' Dzor,AM-VD,364,PM,#VALUE!
700000640,Sevaberd,,40.2737,44.8022,Kotayk',AM-KT,364,PM,#VALUE!
700000641,Musayelyan,,40.9937,43.9379,Shirak,AM-SH,360,PM,#VALUE!
700000642,Yenok’avan,,40.9129,45.1074,Tavush,AM-TV,360,PM,#VALUE!
700000643,T’t’ujur,,40.57,44.4592,Aragatsotn,AM-AG,359,PM,#VALUE!
700000644,Akhpradzor,,40.0977,45.641,Geghark'unik',AM-GR,358,PM,#VALUE!
700000645,Alvank’,,38.9379,46.3468,Syunik',AM-SU,355,PM,62.90
700000646,Kirants’,,41.0474,45.0992,Tavush,AM-TV,355,PM,#VALUE!
700000647,Ditavan,,40.9744,45.207,Tavush,AM-TV,351,PM,#VALUE!
700000648,Suseri,,40.4195,43.7445,Aragatsotn,AM-AG,349,PM,#VALUE!
700000649,Barekamavan,,41.1733,45.115,Tavush,AM-TV,348,PM,#VALUE!
700000650,Kaniashir,,40.6557,44.2412,Aragatsotn,AM-AG,348,PM,#VALUE!
700000651,Areguni,,40.3378,45.6086,Geghark'unik',AM-GR,346,PM,#VALUE!
700000652,Lerrnarot,,40.349,44.1097,Aragatsotn,AM-AG,345,PM,#VALUE!
700000653,Aregnadem,,40.9315,43.7524,Shirak,AM-SH,344,PM,#VALUE!
700000654,Saralanj,,40.4029,44.5195,Kotayk',AM-KT,341,PM,4.57
700000655,Tsav,,39.052,46.4585,Syunik',AM-SU,340,PM,59.44
700000656,Aghavnavank’,,40.7226,45.0925,Tavush,AM-TV,339,PM,#VALUE!
700000657,Geghard,,40.1564,44.7969,Kotayk',AM-KT,339,PM,#VALUE!
700000658,Vaghatur,,39.6064,46.3601,Syunik',AM-SU,338,PM,17.15
700000659,Karin,,40.2541,44.3501,Aragatsotn,AM-AG,336,PM,#VALUE!
700000660,Aygehat,,41.0159,44.6235,Lorri,AM-LO,335,PM,#VALUE!
700000661,Tolors,,39.4695,46.0251,Syunik',AM-SU,335,PM,20.85
700000662,Bovadzor,,41.0371,44.4031,Lorri,AM-LO,329,PM,#VALUE!
700000663,Dzoraget,,40.9515,44.6335,Lorri,AM-LO,328,PM,#VALUE!
700000664,Garov,,38.9639,46.2973,Syunik',AM-SU,327,PM,#VALUE!
700000665,Geghanush,,39.1719,46.4196,Syunik',AM-SU,327,PM,21.93
700000666,Dastakert,,39.3683,46.0367,Syunik',AM-SU,326,PM,0.50
700000667,Partizak,,40.2723,44.0417,Aragatsotn,AM-AG,326,PM,#VALUE!
700000668,Artavan,,39.5973,45.4361,Vayots' Dzor,AM-VD,324,PM,#VALUE!
700000669,Hors,,39.8639,45.2333,Vayots' Dzor,AM-VD,324,PM,#VALUE!
700000670,Hovtashen,,40.6695,43.8945,Shirak,AM-SH,324,PM,#VALUE!
700000671,Neghots’,,41.1333,44.7833,Syunik',AM-LO,323,PM,#VALUE!
700000672,Sizavet,,41.1024,43.8396,Shirak,AM-SH,321,PM,#VALUE!
700000673,Ayrk’,,40.1236,45.7854,Geghark'unik',AM-GR,320,PM,#VALUE!
700000674,Shvanidzor,,38.9375,46.3715,Syunik',AM-SU,315,PM,42.22
700000675,Ferik,,40.1861,44.2111,Armavir,AM-AV,313,PM,#VALUE!
700000676,Arin,,39.7279,45.4945,Vayots' Dzor,AM-VD,312,PM,#VALUE!
700000677,Kayan,,41.0057,45.2305,Tavush,AM-TV,312,PM,#VALUE!
700000678,Vorotan,,39.425,46.3759,Syunik',AM-SU,312,PM,0.31
700000679,Jajurravan,,40.8709,43.9543,Shirak,AM-SH,308,PM,#VALUE!
700000680,Hats’ashen,,40.4223,44.0917,Aragatsotn,AM-AG,307,PM,#VALUE!
700000681,Jradzor,,40.9117,43.7686,Shirak,AM-SH,305,PM,#VALUE!
700000682,Karchevan,,38.8961,46.1833,Syunik',AM-SU,304,PM,29.04
700000683,Berdkunk’,,40.4501,45.1055,Geghark'unik',AM-GR,298,PM,#VALUE!
700000684,Ishkhanasar,,39.5682,46.035,Syunik',AM-SU,297,PM,12.75
700000685,Krashen,,40.8774,43.9654,Shirak,AM-SH,297,PM,#VALUE!
700000686,Sadunts’,,40.6463,44.1982,Aragatsotn,AM-AG,296,PM,#VALUE!
700000687,Kutakan,,40.2668,45.8386,Geghark'unik',AM-GR,291,PM,#VALUE!
700000688,Deghdzavan,,41.2571,44.8889,Tavush,AM-TV,290,PM,#VALUE!
700000689,Arevadasht,,40.1361,43.9333,Armavir,AM-AV,286,PM,#VALUE!
700000690,Aghberk’,,40.5299,45.2794,Geghark'unik',AM-GR,280,PM,#VALUE!
700000691,Avshen,,40.7228,44.2922,Aragatsotn,AM-AG,279,PM,#VALUE!
700000692,Dzyunashogh,,41.1853,44.1855,Lorri,AM-LO,276,PM,#VALUE!
700000693,Tsaghkashat,,41.0749,44.7438,Lorri,AM-LO,275,PM,#VALUE!
700000694,Gtashen,,40.9189,43.7228,Shirak,AM-SH,273,PM,#VALUE!
700000695,Shishkert,,39.0723,46.3529,Syunik',AM-SU,266,PM,#VALUE!
700000696,Svarants’,,39.3667,46.2195,Syunik',AM-SU,266,PM,16.28
700000697,Salvard,,39.4648,45.9232,Syunik',AM-SU,265,PM,31.44
700000698,Tegher,,40.3445,44.2389,Aragatsotn,AM-AG,263,PM,#VALUE!
700000699,Dzorashen,,40.9311,44.0681,Shirak,AM-SH,258,PM,#VALUE!
700000700,Garrnarrichi,,41.0779,43.5583,Shirak,AM-SH,257,PM,78.60
700000701,Hats’avan,Sisian|Atsavan,39.464,45.9705,Syunik',AM-SU,255,PM,8.03
700000702,Semyonovka,,40.6588,44.9012,Geghark'unik',AM-GR,255,PM,#VALUE!
700000703,Avazan,,40.302,45.7036,Geghark'unik',AM-GR,254,PM,#VALUE!
700000704,Karmrashen,,40.2667,43.8833,Aragatsotn,AM-AG,254,PM,#VALUE!
700000705,Karmrashen,,39.8167,45.5361,Vayots' Dzor,AM-VD,254,PM,#VALUE!
700000706,Haykasar,,40.6055,43.8889,Shirak,AM-SH,251,PM,#VALUE!
700000707,Petrovka,,41.1696,44.3122,Lorri,AM-LO,250,PM,#VALUE!
700000708,Norabak,,40.1557,45.8611,Geghark'unik',AM-GR,248,PM,#VALUE!
700000709,Bandivan,,40.9577,43.811,Shirak,AM-SH,247,PM,#VALUE!
700000710,Saravan,,39.7195,45.6501,Vayots' Dzor,AM-VD,247,PM,#VALUE!
700000711,Horbategh,,39.8945,45.3403,Vayots' Dzor,AM-VD,244,PM,#VALUE!
700000712,Lanjar,,39.8279,44.9723,Ararat,AM-AR,242,PM,#VALUE!
700000713,Saralanj,,40.6031,44.3928,Aragatsotn,AM-AG,240,PM,#VALUE!
700000714,Saralanj,,40.5861,44.3973,Aragatsotn,AM-AG,240,PM,#VALUE!
700000715,Yaghdan,,41.0075,44.5085,Lorri,AM-LO,235,PM,#VALUE!
700000716,Shikahogh,,39.0973,46.4751,Syunik',AM-SU,231,PM,18.95
700000717,Vardanidzor,,38.9699,46.2156,Syunik',AM-SU,230,PM,23.02
700000718,Antarrut,,40.3555,44.2639,Aragatsotn,AM-AG,227,PM,#VALUE!
700000719,Karmravan,,41.0108,43.8705,Shirak,AM-SH,225,PM,#VALUE!
700000720,T’asik,,39.4513,45.9626,Syunik',AM-SU,223,PM,#VALUE!
700000721,Jiliza,,41.2278,44.6272,Lorri,AM-LO,222,PM,#VALUE!
700000722,Salli,,39.8737,45.2779,Vayots' Dzor,AM-VD,222,PM,#VALUE!
700000723,Berdashen,,41.0573,43.6746,Shirak,AM-SH,220,PM,19.70
700000724,Jrambar,,40.4805,44.4417,Aragatsotn,AM-AG,216,PM,#VALUE!
700000725,Saralanj,,40.8733,44.0988,Lorri,AM-LO,216,PM,#VALUE!
700000726,Tandzaver,,39.3508,46.3291,Syunik',AM-SU,212,PM,3.72
700000727,Shurrnukh,,39.3813,46.3981,Syunik',AM-SU,208,PM,8.83
700000728,P’ok’rasheni,,40.9819,43.9973,Shirak,AM-SH,206,PM,#VALUE!
700000729,Talvorik,,40.1001,43.9333,Armavir,AM-AV,205,PM,#VALUE!
700000730,Acharkut,,41.0361,45.0889,Tavush,AM-TV,201,PM,#VALUE!
700000731,Shgharshik,,39.2319,46.3333,Syunik',AM-SU,201,PM,#VALUE!
700000732,Lusakn,,40.2833,43.8167,Aragatsotn,AM-AG,200,PM,#VALUE!
700000733,Saghmosavan,,40.3807,44.3945,Aragatsotn,AM-AG,200,PM,#VALUE!
700000734,Kut’,,40.1805,45.8963,Geghark'unik',AM-GR,195,PM,#VALUE!
700000735,Saragyugh,,41.1431,43.8361,Shirak,AM-SH,194,PM,#VALUE!
700000736,Shenkani,,40.6388,44.2728,Aragatsotn,AM-AG,194,PM,#VALUE!
700000737,Hovtun,,40.9692,43.8148,Shirak,AM-SH,192,PM,#VALUE!
700000738,Sers,,39.5639,45.4805,Vayots' Dzor,AM-VD,191,PM,#VALUE!
700000739,Arjadzor,,39.2622,46.3725,Syunik’,AM-SU,186,PM,5.49
700000740,Arrajadzor,,39.3435,46.4011,Syunik',AM-SU,186,PM,#VALUE!
700000741,Amoj,,41.0593,44.5967,Lorri,AM-LO,185,PM,#VALUE!
700000742,Ot’evan,,40.3639,44.0611,Aragatsotn,AM-AG,184,PM,#VALUE!
700000743,Sorik,,40.4195,43.7223,Aragatsotn,AM-AG,184,PM,#VALUE!
700000744,Lerrnut,,40.867,43.9204,Shirak,AM-SH,183,PM,#VALUE!
700000745,Tsaghkut,,41.0967,43.6221,Shirak,AM-SH,183,PM,#VALUE!
700000746,Hermon,,39.8751,45.4279,Vayots' Dzor,AM-VD,182,PM,#VALUE!
700000747,Mijnatun,,40.694,44.356,Aragatsotn,AM-AG,180,PM,#VALUE!
700000748,Agarak,,39.2029,46.0653,Syunik',AM-SU,179,PM,16.60
700000749,Ardenis,,41.0778,43.7237,Shirak,AM-SH,179,PM,#VALUE!
700000750,Bnunis,,39.4446,46.0073,Syunik',AM-SU,178,PM,17.16
700000751,Dzoravank’,,40.6992,45.1058,Geghark'unik',AM-GR,178,PM,#VALUE!
700000752,Balak’,,39.5517,45.9293,Syunik',AM-SU,176,PM,10.68
700000753,Tretuk’,,40.2389,45.8529,Geghark'unik',AM-GR,176,PM,#VALUE!
700000754,Artamet,,40.1223,43.8555,Armavir,AM-AV,174,PM,#VALUE!
700000755,Geghi,,39.2223,46.1583,Syunik',AM-SU,174,PM,68.67
700000756,Nor Astghaberd,,39.2455,46.1077,Aragatsotn,AM-AG,174,PM,#VALUE!
700000757,Antarramej,,40.6845,45.0871,Geghark'unik',AM-GR,173,PM,#VALUE!
700000758,Aravus,,39.5655,46.4686,Syunik',AM-SU,173,PM,4.43
700000759,Daranak,,40.3675,45.5681,Geghark'unik',AM-GR,170,PM,#VALUE!
700000760,Zovashen,,40.3111,44.7473,Kotayk',AM-KT,170,PM,#VALUE!
700000761,Arevut,,40.3639,43.8139,Aragatsotn,AM-AG,169,PM,#VALUE!
700000762,Vardashat,,39.8303,45.0247,Ararat,AM-AR,168,PM,#VALUE!
700000763,Achanan,,39.2362,46.4311,Syunik',AM-SU,166,PM,7.64
700000764,Yemazlu,,39.2464,46.4317,Syunik',AM-SU,166,PM,7.64
700000765,Antarrashat,,39.3054,46.3386,Syunik',AM-SU,165,PM,16.48
700000766,Gomk’,,39.6307,45.5723,Vayots' Dzor,AM-VD,164,PM,#VALUE!
700000767,Gomur,,39.6321,45.5723,Vayots' Dzor,AM-VD,164,PM,#VALUE!
700000768,Shoghakn,,40.4695,44.4805,Aragatsotn,AM-AG,164,PM,#VALUE!
700000769,Ddmasar,,40.3417,43.8251,Aragatsotn,AM-AG,163,PM,#VALUE!
700000770,Lichk’,,39.0555,46.1751,Syunik',AM-SU,163,PM,34.92
700000771,Gyalto,,40.382,43.7289,Aragatsotn,AM-AG,162,PM,#VALUE!
700000772,Kanch’,,40.3723,43.7111,Aragatsotn,AM-AG,162,PM,#VALUE!
700000773,Metsadzor,,40.3807,44.0473,Aragatsotn,AM-AG,161,PM,#VALUE!
700000774,Dian,,40.3555,44.0751,Aragatsotn,AM-AG,152,PM,#VALUE!
700000775,Kak’avasar,,40.924,44.0211,Shirak,AM-SH,152,PM,#VALUE!
700000776,Gegharot,,40.7061,44.2197,Aragatsotn,AM-AG,151,PM,#VALUE!
700000777,Nyuvadi,,38.8917,46.479,Syunik',AM-SU,149,PM,118.61
700000778,Sarapat,,40.9357,44.0446,Shirak,AM-SH,149,PM,#VALUE!
700000779,Bardzravan,,39.4001,46.3307,Syunik',AM-SU,147,PM,10.50
700000780,Zorakert,,41.0925,43.6601,Shirak,AM-SH,146,PM,#VALUE!
700000781,T’lik,,40.4,43.6166,Shirak,AM-SH,144,PM,#VALUE!
700000782,Zedea,,39.6805,45.3945,Vayots' Dzor,AM-VD,142,PM,#VALUE!
700000783,Alvar,,41.0501,43.7501,Shirak,AM-SH,141,PM,#VALUE!
700000784,Nzhdeh,,39.3749,45.9954,Syunik',AM-SU,140,PM,28.80
700000785,Geghamabak,,40.1653,45.8069,Geghark'unik',AM-GR,136,PM,#VALUE!
700000786,Paghaghbyur,,41.1791,44.1188,Lori,AM-LO,134,PM,#VALUE!
700000787,Chakaten,,39.1473,46.4445,Syunik',AM-SU,132,PM,#VALUE!
700000788,Dashtadem,,41.1398,44.1749,Lorri,AM-LO,131,PM,#VALUE!
700000789,Norashenik,,39.2688,46.3893,Syunik',AM-SU,129,PM,9.16
700000790,Yegheg,,39.2991,46.4195,Syunik',AM-SU,122,PM,10.12
700000791,Injevar,,39.2558,46.4394,Syunik',AM-SU,121,PM,#VALUE!
700000792,Torunik’,,39.4122,46.0202,Syunik',AM-SU,121,PM,18.61
700000793,Aghvorik,,41.0773,43.7635,Shirak,AM-SH,119,PM,#VALUE!
700000794,Kalavan,,40.6486,45.109,Geghark'unik',AM-GR,118,PM,#VALUE!
700000795,Hovnanadzor,,41.0297,44.5249,Lorri,AM-LO,117,PM,#VALUE!
700000796,Koghbavan,,40.1501,43.7529,Armavir,AM-AV,115,PM,#VALUE!
700000797,Hank’avan,,40.6351,44.4841,Kotayk',AM-KT,112,PM,#VALUE!
700000798,Kaghnut,,39.279,46.512,Syunik',AM-SU,106,PM,5.84
700000799,Sevak’ar,,39.271,46.4441,Syunik',AM-SU,105,PM,#VALUE!
700000800,Sevak’ar,,39.271,46.4441,Syunik',AM-SU,105,PM,#VALUE!
700000801,Tashtun,,39.0667,46.1695,Syunik',AM-SU,105,PM,21.60
700000802,Azat,,40.1111,45.1251,Geghark'unik',AM-GR,102,PM,#VALUE!
700000803,Azati,,40.4195,45.1055,Geghark'unik',AM-GR,102,PM,#VALUE!
700000804,Bendik,,41.1549,44.7133,Lorri,AM-LO,102,PM,#VALUE!
700000805,Meghvahovit,,41.0992,44.1551,Lorri,AM-LO,102,PM,#VALUE!
700000806,Jaghats’adzor,,40.1491,45.8167,Geghark'unik',AM-GR,101,PM,#VALUE!
700000807,Vardavank’,,39.2416,46.4998,Syunik',AM-SU,101,PM,6.76
700000808,Aghvani,,39.3551,46.3054,Syunik',AM-SU,99,PM,9.92
700000809,Halavar,,40.7632,44.3852,Lorri,AM-LO,99,PM,#VALUE!
700000810,Hako,,40.3861,43.6917,Aragatsotn,AM-AG,96,PM,#VALUE!
700000811,Salkut,,40.9666,43.9333,Lorri,AM-SH,94,PM,#VALUE!
700000812,Salut,,40.9671,43.9332,Shirak,AM-SH,94,PM,#VALUE!
700000813,Okhtar,,39.2808,46.3605,Syunik',AM-SU,93,PM,3.30
700000814,Tavrus,,39.2976,46.359,Syunik',AM-SU,92,PM,3.76
700000815,Mirak’,,40.645,44.324,Aragatsotn,AM-AG,90,PM,#VALUE!
700000816,Srashen,,39.0779,46.5001,Syunik',AM-SU,90,PM,8.88
700000817,Vardaghbyur,,40.5793,43.9611,Shirak,AM-SH,90,PM,#VALUE!
700000818,Kavshut,,39.1973,46.2167,Syunik',AM-SU,88,PM,#VALUE!
700000819,Mozrov,,39.7008,45.3402,Vayots' Dzor,AM-VD,88,PM,#VALUE!
700000820,Tandzatap’,,39.3745,46.258,Syunik',AM-SU,88,PM,7.32
700000821,Getishen,,39.2262,46.1289,Syunik',AM-SU,87,PM,#VALUE!
700000822,Shaghik,,41.0487,43.5888,Shirak,AM-SH,85,PM,#VALUE!
700000823,Getavan,,41.0541,44.3367,Lorri,AM-LO,84,PM,#VALUE!
700000824,Gogavan,,41.2028,44.3144,Lorri,AM-LO,84,PM,#VALUE!
700000825,Ltsen,,39.4473,46.1571,Syunik',AM-SU,76,PM,15.96
700000826,Shrvenants’,,39.2861,46.3914,Syunik',AM-SU,76,PM,5.83
700000827,Gomaran,,39.0945,46.2083,Syunik',AM-SU,71,PM,#VALUE!
700000828,Tsaghkasar,,40.4723,43.9057,Aragatsotn,AM-AG,71,PM,#VALUE!
700000829,T’khkut,,38.9873,46.2083,Syunik',AM-SU,69,PM,#VALUE!
700000830,Barepat,,40.6695,45.114,Geghark'unik',AM-GR,68,PM,#VALUE!
700000831,Vanek’,,39.2808,46.3444,Syunik',AM-SU,62,PM,#VALUE!
700000832,Paghakn,,41.0645,43.653,Shirak,AM-SH,60,PM,#VALUE!
700000833,Uzhanis,,39.2361,46.5408,Syunik',AM-SU,60,PM,#VALUE!
700000834,Arevis,,39.4063,45.9002,Syunik',AM-SU,55,PM,18.30
700000835,Bashgyugh,,40.9444,43.9693,Shirak,AM-SH,54,PM,#VALUE!
700000836,Karmrak’ari,,40.8653,43.8889,Shirak,AM-SH,53,PM,#VALUE!
700000837,Zarishat,,40.9993,43.6576,Shirak,AM-SH,50,PM,#VALUE!
700000838,Khdrants’,,39.225,46.5263,Syunik',AM-SU,49,PM,6.58
700000839,Vahravar,,38.9503,46.1747,Syunik',AM-SU,49,PM,8.02
700000840,Dprevank’,,40.2917,44.0973,Aragatsotn,AM-AG,48,PM,#VALUE!
700000841,Gnishik,,39.6583,45.2973,Vayots' Dzor,AM-VD,45,PM,#VALUE!
700000842,Kuris,,38.9325,46.1787,Syunik',AM-SU,45,PM,14.31
700000843,Lernagyugh,,40.95,43.9166,Shirak,AM-SH,43,PM,#VALUE!
700000844,Gorrgoch’,,40.5979,44.6063,Kotayk',AM-KT,33,PM,#VALUE!
700000845,Ajabaj,,39.2529,46.0833,Syunik',AM-SU,28,PM,#VALUE!
700000846,Yeghnajur,,41.0931,43.573,Shirak,AM-SH,27,PM,#VALUE!
700000847,Gudemnis,,38.9393,46.177,Syunik',AM-SU,21,PM,15.58
700000848,Ughedzor,,39.6875,45.6798,Vayots' Dzor,AM-VD,21,PM,#VALUE!
700000849,Khordzor,,39.2037,46.3711,Syunik',AM-SU,18,PM,#VALUE!
700000850,P’khrut,,39.1473,46.2223,Syunik',AM-SU,16,PM,#VALUE!
700000851,Darik,,41.1193,43.6765,Shirak,AM-SH,11,PM,#VALUE!
700000852,Achkhlu,,39.2314,46.3072,Syunik',AM-SU,10,FM,#VALUE!
700000853,Aghajanyani,,39.8389,45.6681,Vayots' Dzor,AM-VD,10,FM,#VALUE!
700000854,Agit,,40.3417,43.8001,Aragatsotn,AM-AG,10,FM,#VALUE!
700000855,Ajylu,,39.1632,46.2906,Syunik',AM-SU,10,FM,#VALUE!
700000856,Alatala,,40.8,45.4,Tavush,AM-TV,10,FM,#VALUE!
700000857,Asei,,40.6973,44.0195,Shirak,AM-SH,10,FM,#VALUE!
700000858,Asni,,39.7973,44.8445,Ararat,AM-AR,10,FM,#VALUE!
700000859,Atdash,,40.035,45.1897,Geghark'unik',AM-GR,10,FM,#VALUE!
700000860,Atsarat,,40.3428,45.1133,Geghark'unik',AM-GR,10,FM,#VALUE!
700000861,Ayrijur,,40.6653,45.1389,Geghark'unik',AM-GR,10,FM,#VALUE!
700000862,Azatavan,,40.1361,44.0779,Armavir,AM-AV,10,FM,#VALUE!
700000863,Baharlu,,39.2206,46.2194,Syunik',AM-SU,10,FM,#VALUE!
700000864,Barabat’um,,39.2122,46.4163,Syunik',AM-SU,10,FM,#VALUE!
700000865,Bardzragah,,40.0569,45.4431,Geghark'unik',AM-GR,10,FM,#VALUE!
700000866,Berdik,,40.4819,43.9597,Aragatsotn,AM-AG,10,FM,#VALUE!
700000867,Boloraberd,,39.6695,45.3459,Vayots' Dzor,AM-VD,10,FM,#VALUE!
700000868,Bots’ik,,40.3389,43.6029,Aragatsotn,AM-AG,10,FM,#VALUE!
700000869,Bover,,41.1097,44.8251,Lorri,AM-LO,10,FM,#VALUE!
700000870,Braghdzor,,41.1167,44.8265,Lorri,AM-LO,10,FM,#VALUE!
700000871,Buzhakani,,40.5085,44.5057,Aragatsotn,AM-AG,10,FM,#VALUE!
700000872,Ch’anakhch’i,,39.2833,46.3833,Syunik',AM-SU,10,FM,#VALUE!
700000873,Chalabi,,40.8256,45.5261,Tavush,AM-TV,10,FM,#VALUE!
700000874,Champ’ateghi,,39.6723,45.2779,Vayots' Dzor,AM-VD,10,FM,#VALUE!
700000875,Chil,,40.3403,44.2667,Aragatsotn,AM-AG,10,FM,#VALUE!
700000876,Chlut,,39.8667,45.0279,Ararat,AM-AR,10,FM,#VALUE!
700000877,Daluk,,40.4153,44.9833,Geghark'unik',AM-GR,10,FM,#VALUE!
700000878,Dashalty,,39.7056,45.4417,Vayots' Dzor,AM-VD,10,FM,#VALUE!
700000879,Dashnoa,,39.9485,45.0184,Ararat,AM-AR,10,FM,#VALUE!
700000880,Demdemashen,,40.5751,44.8417,Geghark'unik',AM-GR,10,FM,#VALUE!
700000881,Dits’mayri,,39.2083,46.5001,Syunik',AM-SU,10,FM,#VALUE!
700000882,Dvalner,,40.5293,43.9305,Shirak,AM-SH,10,FM,#VALUE!
700000883,Dzknorsneri,,41.0501,43.5917,Shirak,AM-SH,10,FM,#VALUE!
700000884,Dzoragyugh,,40.4667,43.9057,Aragatsotn,AM-AG,10,PM,#VALUE!
700000885,Eridzor,,40.8279,45.5251,Tavush,AM-TV,10,FM,#VALUE!
700000886,Evazi,,40.1889,45.6917,Geghark'unik',AM-GR,10,FM,#VALUE!
700000887,Galusti,,40.3501,43.9625,Aragatsotn,AM-AG,10,FM,#VALUE!
700000888,Geyarchin,,40.75,45.05,Tavush,AM-TV,10,FM,#VALUE!
700000889,Gharaghaya,,39.9128,45.4766,Vayots' Dzor,AM-VD,10,FM,#VALUE!
700000890,Goght’anik,,39.8779,45.4611,Vayots' Dzor,AM-VD,10,FM,#VALUE!
700000891,Golovino,,40.7131,44.8494,Tavush,AM-TV,10,FM,#VALUE!
700000892,Gorshut,,41.0085,44.9861,Tavush,AM-TV,10,FM,#VALUE!
700000893,Gt’ashen,,40.4695,43.5597,Aragatsotn,AM-AG,10,FM,#VALUE!
700000894,Guteni,,39.8055,45.5375,Vayots' Dzor,AM-VD,10,FM,#VALUE!
700000895,Gyabut,,39.6244,45.5925,Vayots' Dzor,AM-VD,10,FM,#VALUE!
700000896,Gzraver,,40.7459,44.6667,Lorri,AM-LO,10,FM,#VALUE!
700000897,Hamoyi,,40.6723,45.2293,Geghark'unik',AM-GR,10,FM,#VALUE!
700000898,Heshin,,39.8029,45.1307,Vayots' Dzor,AM-VD,10,FM,#VALUE!
700000899,Hunut,,39.25,46.3833,Syunik',AM-SU,10,FM,#VALUE!
700000900,Ishkhanik,,39.2557,46.2501,Syunik',AM-SU,10,FM,#VALUE!
700000901,Janibeki,,40.2167,45.7541,Geghark'unik',AM-GR,10,FM,#VALUE!
700000902,Jrakhor,,39.2195,46.2917,Syunik',AM-SU,10,FM,#VALUE!
700000903,K’anagegh,,40.2779,45.2111,Geghark'unik',AM-GR,10,FM,#VALUE!
700000904,K’aradasht,,40.6167,45.1473,Geghark'unik',AM-GR,10,FM,#VALUE!
700000905,K’arak’os,,40.8653,44.5417,Lorri,AM-LO,10,FM,#VALUE!
700000906,Kaler,,40.3279,44.3835,Aragatsotn,AM-AG,10,FM,#VALUE!
700000907,Kaler,,39.0613,46.2758,Syunik’,AM-SU,10,FM,#VALUE!
700000908,Kamzak,,40.8953,44.1464,Lorri,AM-LO,10,FM,#VALUE!
700000909,Kapanak,,40.7667,43.9833,Shirak,AM-SH,10,FM,#VALUE!
700000910,Karakala,,40.0503,43.8664,Armavir,AM-AV,10,FM,#VALUE!
700000911,Karakishlag,,40.1206,44.3742,Armavir,AM-AV,10,FM,#VALUE!
700000912,Kat’narrat,,39.1361,46.2083,Syunik',AM-SU,10,FM,#VALUE!
700000913,Kavart,,39.235,46.3947,Syunik',AM-SU,10,FM,#VALUE!
700000914,Kayalu,,39.6925,45.5061,Vayots' Dzor,AM-VD,10,FM,#VALUE!
700000915,Khach’atakht,,39.2667,46.5125,Syunik',AM-SU,10,FM,#VALUE!
700000916,Khamvari,,40.7487,44.0779,Shirak,AM-SH,10,FM,#VALUE!
700000917,Khazmaz,,39.2695,46.0889,Syunik',AM-SU,10,FM,#VALUE!
700000918,Khnut,,39.9473,45.0639,Ararat,AM-AR,10,FM,#VALUE!
700000919,Kizilkharab,,40.0636,45.1439,Geghark'unik',AM-GR,10,FM,#VALUE!
700000920,Kizil-Kulag,,40.9083,45.4403,Tavush,AM-TV,10,FM,#VALUE!
700000921,Kozman,,41.1334,44.9022,Tavush,AM-TV,10,FM,#VALUE!
700000922,Kuchuma,,39.2,46.2667,Syunik',AM-SU,10,FM,#VALUE!
700000923,Kyurakyan,,40.1833,44.2167,Armavir,AM-AV,10,FM,#VALUE!
700000924,Lerrnakert,,40.1029,45.2861,Geghark'unik',AM-GR,10,FM,#VALUE!
700000925,Maflar,,40.9,45.4333,Tavush,AM-TV,10,FM,#VALUE!
700000926,Mamai,,41.2802,44.7915,Tavush,AM-TV,10,FM,#VALUE!
700000927,Mayrats’,,39.7265,45.5875,Vayots' Dzor,AM-VD,10,FM,#VALUE!
700000928,Mugam,,40.0707,44.2495,Armavir,AM-AV,10,FM,#VALUE!
700000929,Niavan,,40.0333,44.5333,Ararat,AM-AR,10,FM,#VALUE!
700000930,Noraber,,40.6667,43.7667,Shirak,AM-SH,10,FM,#VALUE!
700000931,Norakhpyur,,40.959,43.7071,Shirak,AM-SH,10,FM,#VALUE!
700000932,Oskevan,,40.9153,44.0917,Shirak,AM-SH,10,FM,#VALUE!
700000933,Oskoyi,,40.4765,44.4653,Aragatsotn,AM-AG,10,FM,#VALUE!
700000934,Papanino,,40.7419,44.8453,Tavush,AM-TV,10,FM,#VALUE!
700000935,Pasharaberd,,40.3389,44.5889,Kotayk',AM-KT,10,FM,#VALUE!
700000936,Pater,,40.1029,43.6861,Armavir,AM-AV,10,FM,#VALUE!
700000937,Pirdaudan,,39.25,46.1333,Syunik',AM-SU,10,FM,#VALUE!
700000938,Ragimabad,,40.1,44.3667,Ararat,AM-AR,10,FM,#VALUE!
700000939,Rrindi,,39.7667,45.1667,Vayots' Dzor,AM-VD,10,FM,#VALUE!
700000940,Sabunchi,,39.9997,44.4667,Ararat,AM-AR,10,FM,#VALUE!
700000941,Salorut,,40.8695,44.6667,Lorri,AM-LO,10,FM,#VALUE!
700000942,Sevahogh,,39.9305,45.0723,Ararat,AM-AR,10,FM,#VALUE!
700000943,Shatakh,,40.4667,43.8139,Aragatsotn,AM-AG,10,FM,#VALUE!
700000944,Shenaver,,40.9529,43.9445,Shirak,AM-SH,10,FM,#VALUE!
700000945,Shenaver,,40.1291,45.8167,Geghark'unik',AM-GR,10,FM,#VALUE!
700000946,Shok’ar,,39.5695,45.8807,Syunik',AM-SU,10,FM,#VALUE!
700000947,Surbidar,,39.5209,45.4765,Vayots' Dzor,AM-VD,10,FM,#VALUE!
700000948,T’akhs,,39.2931,46.3653,Syunik',AM-SU,10,FM,#VALUE!
700000949,T’arrat’umb,,39.8917,45.2557,Vayots' Dzor,AM-VD,10,FM,#VALUE!
700000950,Tandzut,,40.7515,45.0237,Tavush,AM-TV,10,PM,#VALUE!
700000951,Tohmik,,39.6889,45.4695,Vayots' Dzor,AM-VD,10,FM,#VALUE!
700000952,Tsaghkanav,,38.9805,46.4361,Syunik',AM-SU,10,FM,#VALUE!
700000953,Tsiranut,,40.0085,45.0153,Ararat,AM-AR,10,FM,#VALUE!
700000954,Tsvstan,,40.3069,43.8807,Aragatsotn,AM-AG,10,FM,#VALUE!
700000955,Turdzhan,,40.7833,45.3167,Tavush,AM-TV,10,FM,#VALUE!
700000956,Tuskyulu,,40.1667,45.6833,Geghark'unik',AM-GR,10,FM,#VALUE!
700000957,Ukhtaver,,40.6431,44.3375,Aragatsotn,AM-AG,10,FM,#VALUE!
700000958,Vardashen,,40.0328,44.5528,Ararat,AM-AR,10,FM,#VALUE!
700000959,Zhdanov,,40.8425,44.4375,Lorri,AM-LO,10,FM,#VALUE!
700000960,Zovaber,,39.4333,46.2333,Syunik',AM-SU,10,FM,#VALUE!
700000961,Zvartnots,,40.1529,44.4057,Armavir,AM-AV,10,FM,#VALUE!
700000962,Aygedzor,,39.4661,46.4144,Syunik',AM-SU,9,PM,#VALUE!
700000963,T’anahat,,39.4345,45.9205,Syunik',AM-SU,7,PM,11.56
700000964,Khnusik,,40.3501,44.1833,Aragatsotn,AM-AG,3,PM,#VALUE!
700000965,Kamkhut,,40.9018,43.7,Shirak,AM-SH,2,PM,#VALUE!
700000966,Norshen,,40.506,43.5952,Shirak,AM-SH,1,PM,#VALUE!
